,City,Cloudiness,Country,Date,Humidity,Lat,Lon,Max Temp,Wind Speed
0,Longaví,81,CL,1601721057,81,-35.97,-71.68,4.99,1.57
1,Provideniya,90,RU,1601721058,83,64.38,-173.3,5.3,5.36
2,Albany,80,US,1601721027,86,42.6,-73.97,7.22,1.33
3,Dikson,100,RU,1601721059,88,73.51,80.55,1.26,10.65
4,George Town,20,MY,1601720818,70,5.41,100.34,30.0,3.6
5,Saint Paul Harbor,40,US,1601721061,66,57.79,-152.41,9.0,4.6
6,Hobart,75,AU,1601720930,87,-42.88,147.33,13.33,3.1
7,Vaini,90,TO,1601721063,94,-21.2,-175.2,22.0,4.1
8,Saldanha,0,ZA,1601721064,52,-33.01,17.94,20.0,2.1
9,Lebu,51,CL,1601721065,80,-37.62,-73.65,6.27,1.43
10,Ushuaia,75,AR,1601720834,64,-54.8,-68.3,3.0,5.1
11,Kingsland,1,US,1601721066,82,30.8,-81.69,19.0,2.6
12,Kamina,19,CD,1601721067,36,-8.74,24.99,31.62,2.16
13,Norman Wells,75,CA,1601721068,80,65.28,-126.83,5.0,1.0
14,Port Alfred,98,ZA,1601721068,82,-33.59,26.89,16.45,10.87
15,Ugoofaaru,68,MV,1601721069,73,5.67,73.0,28.21,6.38
16,Buala,4,SB,1601721070,79,-8.14,159.59,26.85,2.64
17,Karaton,40,ID,1601721070,74,-6.34,106.1,31.11,2.1
18,Saint-Augustin,19,CA,1601721071,93,51.23,-58.65,10.4,2.24
19,Barrow,90,US,1601721072,100,71.29,-156.79,1.0,5.1
20,Camapuã,70,BR,1601721072,18,-19.53,-54.04,32.3,1.21
21,Thanh Hoa,40,VN,1601721073,87,19.8,105.77,27.19,2.55
22,Esperance,75,AU,1601721074,87,-33.87,121.9,10.0,5.7
23,Hithadhoo,83,MV,1601721074,74,-0.6,73.08,28.58,5.44
24,Rikitea,61,PF,1601721075,80,-23.12,-134.97,22.57,6.44
25,Bredasdorp,100,ZA,1601721076,77,-34.53,20.04,18.0,8.2
26,Kapaa,20,US,1601721076,83,22.08,-159.32,26.0,2.6
27,Asău,85,RO,1601721077,62,46.43,26.4,22.22,3.1
28,Lingyuan,15,CN,1601721078,43,41.24,119.4,13.17,4.28
29,Kavieng,63,PG,1601721079,73,-2.57,150.8,28.42,4.62
30,Saint George,1,US,1601720962,10,37.1,-113.58,17.0,2.06
31,Puerto Ayora,50,EC,1601721080,95,-0.74,-90.35,18.33,4.02
32,Romny,30,UA,1601721080,51,50.75,33.47,20.53,5.7
33,Punta Arenas,100,CL,1601720969,65,-53.15,-70.92,5.0,9.8
34,Saint-Philippe,75,RE,1601721082,69,-21.36,55.77,26.0,4.6
35,Monte Carmelo,64,BR,1601721082,24,-18.72,-47.5,26.83,3.59
36,Paamiut,70,GL,1601721083,84,61.99,-49.67,2.5,1.3
37,Kalmunai,88,LK,1601721084,69,7.42,81.82,29.84,2.73
38,Muros,59,ES,1601721084,83,42.78,-9.06,14.44,0.45
39,Atuona,3,PF,1601721085,77,-9.8,-139.03,25.6,9.84
40,Narsaq,75,GL,1601721086,93,60.92,-46.05,3.0,0.65
41,Rantepao,99,ID,1601721087,91,-2.97,119.9,20.14,0.72
42,Bluff,100,NZ,1601721087,94,-46.6,168.33,12.78,4.47
43,Alanya,40,TR,1601720840,62,36.54,32.0,29.0,3.6
44,Vila Velha,13,BR,1601721088,69,-20.33,-40.29,25.56,9.3
45,Mataura,100,NZ,1601721089,94,-46.19,168.86,12.78,4.47
46,Hermanus,99,ZA,1601721090,90,-34.42,19.23,16.11,1.79
47,Tegul'det,94,RU,1601721091,80,57.31,88.17,8.29,3.89
48,Grand Gaube,20,MU,1601721092,57,-20.01,57.66,27.0,6.7
49,Soyo,90,AO,1601721092,75,-6.13,12.37,26.54,4.15
50,Omboué,100,GA,1601721093,72,-1.57,9.26,27.13,2.12
51,Verkh-Usugli,99,RU,1601721094,88,52.7,115.17,1.62,3.08
52,West Plains,75,US,1601721095,76,36.73,-91.85,10.0,2.15
53,Tiznit Province,5,MA,1601721096,51,29.58,-9.5,21.64,3.06
54,Bambous Virieux,20,MU,1601721097,57,-20.34,57.76,27.0,6.7
55,Yellowknife,90,CA,1601721097,100,62.46,-114.35,7.0,6.7
56,Hoquiam,90,US,1601721098,93,46.98,-123.89,13.33,1.5
57,Port Elizabeth,90,ZA,1601721100,93,-33.92,25.57,15.0,5.1
58,Chui,38,UY,1601721100,69,-33.7,-53.46,10.24,7.25
59,Avarua,71,CK,1601721101,88,-21.21,-159.78,22.0,1.0
60,Yibin,100,CN,1601721102,88,28.77,104.62,20.38,0.94
61,Qaanaaq,59,GL,1601721102,84,77.48,-69.36,-5.16,2.66
62,Rio Bananal,5,BR,1601721103,66,-19.27,-40.33,25.34,3.37
63,Fairbanks,75,US,1601721000,57,64.84,-147.72,12.0,3.6
64,Busselton,45,AU,1601721105,76,-33.65,115.33,12.78,0.45
65,Sayyan,4,YE,1601721105,22,15.17,44.32,20.69,7.3
66,Tasiilaq,90,GL,1601721106,94,65.61,-37.64,0.0,1.5
67,Lakatoro,75,VU,1601721107,88,-16.1,167.42,25.0,4.1
68,Rochegda,2,RU,1601721108,57,62.8,43.25,8.87,1.79
69,Salalah,20,OM,1601721016,66,17.02,54.09,30.0,6.7
70,Cap Malheureux,20,MU,1601721064,57,-19.98,57.61,27.0,6.7
71,Houthulst,100,BE,1601721109,96,50.96,2.9,12.22,1.34
72,Talnakh,40,RU,1601721110,95,69.49,88.4,0.0,11.0
73,Turukhansk,100,RU,1601721111,96,65.82,87.98,6.2,3.36
74,Cape Town,20,ZA,1601720816,49,-33.93,18.42,22.22,4.1
75,San Lazaro,97,BZ,1601721112,96,18.04,-88.66,22.95,3.3
76,Butaritari,100,KI,1601721113,67,3.07,172.79,27.64,2.72
77,Upernavik,100,GL,1601721113,95,72.79,-56.15,0.93,9.9
78,Pascagoula,1,US,1601720906,87,30.37,-88.56,9.44,3.74
79,Graaff-Reinet,58,ZA,1601721114,70,-32.25,24.53,18.33,1.79
80,Sanandij,40,IR,1601721115,14,35.31,46.99,29.0,5.1
81,Forsytheganj,96,BY,1601721116,55,52.63,29.73,19.23,5.6
82,Westport,1,US,1601721041,87,41.14,-73.36,10.0,3.1
83,Komatipoort,97,ZA,1601721117,82,-25.43,31.95,21.11,1.0
84,Kabalo,99,CD,1601721118,42,-6.05,26.92,33.65,1.31
85,Vila Franca do Campo,40,PT,1601721118,73,37.72,-25.43,21.0,6.7
86,Sinnamary,46,GF,1601721119,82,5.38,-52.95,27.28,4.55
87,Kudahuvadhoo,100,MV,1601721120,75,2.67,72.89,27.66,6.43
88,Orizona,0,BR,1601721120,19,-17.03,-48.3,27.33,2.61
89,Nikolskoye,52,RU,1601721121,62,59.7,30.79,17.22,6.0
90,Bathsheba,20,BB,1601721122,88,13.22,-59.52,24.0,2.1
91,Ereymentau,64,KZ,1601721122,49,51.62,73.1,15.08,3.27
92,Srednekolymsk,38,RU,1601721124,91,67.45,153.68,-1.78,2.46
93,Hambantota,40,LK,1601721125,62,6.12,81.12,32.0,8.2
94,Kiryat Gat,0,IL,1601721125,51,31.61,34.76,29.44,6.78
95,South Venice,1,US,1601721126,88,27.05,-82.42,22.22,5.7
96,Ribeira Grande,40,PT,1601721127,69,38.52,-28.7,23.0,6.2
97,Katsuura,75,JP,1601721128,83,35.13,140.3,22.0,3.1
98,Kuril'sk,85,RU,1601721128,86,45.23,147.88,12.83,7.09
99,Aksarayskiy,94,RU,1601721130,15,46.79,48.01,23.0,7.0
100,Ilulissat,75,GL,1601721131,86,69.22,-51.1,-1.0,5.1
101,Sydney,0,AU,1601720800,77,-33.87,151.21,20.0,9.3
102,Jalu,0,LY,1601721132,16,29.03,21.55,38.54,4.38
103,Lyndon,1,US,1601721133,93,38.26,-85.6,9.0,1.42
104,Sulangan,84,PH,1601721134,71,11.14,123.72,29.72,3.87
105,Elko,1,US,1601721134,44,41.0,-115.5,12.78,1.5
106,Alofi,87,NU,1601721135,94,-19.06,-169.92,24.0,3.6
107,Tungor,100,RU,1601721136,82,53.38,142.96,9.68,6.9
108,Bordighera,8,IT,1601721136,70,43.78,7.66,18.33,3.13
109,Nanortalik,91,GL,1601721137,90,60.14,-45.24,2.68,5.72
110,São Félix do Xingu,91,BR,1601721137,52,-6.64,-51.99,28.24,0.63
111,Nong Chik,100,TH,1601721138,80,6.84,101.18,26.95,4.18
112,Madang,56,PG,1601721139,87,-5.22,145.8,26.2,3.91
113,Saurimo,1,AO,1601721140,32,-9.66,20.39,34.28,1.94
114,Mossamedes,88,AO,1601721140,62,-15.2,12.15,22.08,4.16
115,Gagra,20,GE,1601721141,53,43.33,40.22,23.89,4.0
116,Jacareacanga,76,BR,1601721142,75,-6.22,-57.75,26.14,0.44
117,Faanui,15,PF,1601721143,78,-16.48,-151.75,25.65,8.84
118,Cayenne,40,GF,1601721144,100,4.93,-52.33,23.0,4.17
119,Vardø,75,NO,1601721144,93,70.37,31.11,9.0,5.7
120,Luebo,97,CD,1601721145,33,-5.35,21.42,37.41,0.51
121,Quelimane,20,MZ,1601721146,58,-17.88,36.89,31.0,3.6
122,Todos Santos,0,MX,1601721146,81,23.45,-110.22,25.0,0.45
123,Am Timan,72,TD,1601721147,64,11.03,20.28,31.27,0.11
124,Chokurdakh,49,RU,1601721148,85,70.63,147.92,-1.8,5.54
125,Trincomalee,32,LK,1601721044,54,8.57,81.23,31.72,7.93
126,Clyde River,90,CA,1601721152,74,70.47,-68.59,-2.0,2.6
127,Khatanga,74,RU,1601721152,97,71.97,102.5,-6.22,3.78
128,Metro,99,ID,1601721153,79,-5.11,105.31,26.82,2.78
129,Mezhdurechenskiy,96,RU,1601721154,71,59.6,65.93,5.61,6.37
130,Acaraú,28,BR,1601721154,64,-2.89,-40.12,27.99,8.05
131,Hūn,0,LY,1601721155,7,29.13,15.95,41.02,6.95
132,Pisco,73,PE,1601721156,93,-13.7,-76.22,15.0,4.6
133,Poienile de sub Munte,92,RO,1601721156,47,47.82,24.43,21.53,2.27
134,Xinmin,0,CN,1601720888,47,41.99,122.83,15.0,3.0
135,Jamestown,90,US,1601721159,100,42.1,-79.24,5.56,2.6
136,Nishihara,40,JP,1601721160,61,26.18,127.76,27.0,3.1
137,Souillac,20,MU,1601721161,57,-20.52,57.52,27.0,6.7
138,Goderich,100,CA,1601721107,68,43.75,-81.72,8.33,0.45
139,Northam,100,GB,1601721162,92,51.03,-4.22,12.78,4.92
140,Muhororo,51,UG,1601721162,53,0.94,30.76,27.48,0.87
141,Castro,16,BR,1601721163,84,-24.79,-50.01,18.88,5.34
142,Arrecife,40,ES,1601721159,69,28.96,-13.55,25.0,9.8
143,Tabuk,26,PH,1601721165,86,17.42,121.44,24.2,2.25
144,Vestmannaeyjar,40,IS,1601721165,86,63.44,-20.27,4.0,6.2
145,Sinop Province,23,TR,1601721152,41,41.77,34.87,23.05,2.57
146,São João da Barra,0,BR,1601721166,88,-21.64,-41.05,24.0,4.1
147,Ponta do Sol,20,PT,1601721167,69,32.67,-17.1,24.0,5.7
148,Mahon,20,ES,1601721167,45,39.89,4.27,20.0,5.1
149,Otradnoye,51,RU,1601720902,62,59.78,30.82,17.22,6.0
150,Mims,90,US,1601721169,73,28.67,-80.84,25.0,3.1
151,New Norfolk,100,AU,1601721170,72,-42.78,147.06,12.78,1.34
152,Córdoba,40,AR,1601720882,49,-31.41,-64.18,10.0,3.1
153,Palmas,65,BR,1601721006,57,-10.21,-48.36,24.0,1.87
154,Tuatapere,100,NZ,1601721173,94,-46.13,167.68,12.78,4.47
155,Kuching,40,MY,1601721173,94,1.55,110.33,26.0,1.0
156,Harper,86,LR,1601721175,84,4.38,-7.72,26.64,4.81
157,Luanda,75,AO,1601721175,65,-8.84,13.23,27.0,2.1
158,Cabo San Lucas,0,MX,1601721176,77,22.89,-109.91,25.0,0.45
159,Morondava,94,MG,1601721177,55,-20.28,44.28,29.12,5.53
160,Elban,100,RU,1601721178,92,50.1,136.51,8.11,1.95
161,Nikolayevsk-on-Amur,100,RU,1601721180,81,53.14,140.73,8.67,4.02
162,Isfahan,20,IR,1601721181,18,32.66,51.68,28.0,5.1
163,Necochea,61,AR,1601721181,64,-38.55,-58.74,6.11,2.24
164,Mahébourg,20,MU,1601721182,57,-20.41,57.7,27.0,6.7
165,Mahon,20,ES,1601721183,45,39.89,4.27,20.0,5.1
166,Moose Factory,90,CA,1601721184,97,51.26,-80.61,1.0,2.1
167,Iqaluit,90,CA,1601721186,80,63.75,-68.51,-1.0,2.1
168,Bariloche,40,AR,1601721187,80,-41.15,-71.31,-1.0,5.1
169,Suntar,0,RU,1601721188,88,62.14,117.63,-0.23,2.95
170,Bloemfontein,0,ZA,1601721056,20,-29.12,26.21,19.0,5.1
171,Vestnes,20,NO,1601721189,59,62.63,7.09,18.33,4.6
172,Longyearbyen,20,SJ,1601721190,90,78.22,15.64,0.0,0.5
173,Kaitangata,100,NZ,1601721191,89,-46.28,169.85,11.18,4.73
174,Pangnirtung,70,CA,1601721191,89,66.15,-65.71,-3.68,1.64
175,Los Llanos de Aridane,75,ES,1601721192,61,28.66,-17.92,25.0,6.7
176,Radviliškis,90,LT,1601721192,82,55.82,23.53,14.0,6.7
177,Dingle,100,PH,1601721193,94,11.0,122.67,24.84,1.64
178,Sheridan,75,US,1601721193,75,44.83,-106.92,6.11,1.5
179,Torbay,90,CA,1601721194,100,47.67,-52.73,20.56,8.7
180,Ocós,97,GT,1601721195,99,14.51,-92.19,18.33,1.34
181,Mareeba,40,AU,1601721195,60,-17.0,145.43,24.0,9.3
182,Brooks,42,CA,1601721011,71,50.58,-111.89,7.44,0.54
183,Lockhart,99,US,1601721197,87,28.62,-81.44,20.56,0.45
184,Hilo,1,US,1601721197,88,19.73,-155.09,23.0,2.1
185,Honningsvåg,31,NO,1601721198,81,70.98,25.97,9.28,10.25
186,Mogadishu,75,SO,1601721198,66,2.04,45.34,29.0,6.2
187,Omigawa,75,JP,1601721200,82,35.85,140.62,20.0,0.5
188,Verāval,14,IN,1601721200,72,20.9,70.37,29.08,5.58
189,Lüderitz,0,NA,1601721201,56,-26.65,15.16,18.07,6.4
190,Dunedin,100,NZ,1601721202,63,-45.87,170.5,13.25,4.24
191,Mar del Plata,40,AR,1601720951,52,-38.0,-57.56,6.67,6.2
192,Cajamar,90,BR,1601721203,88,-23.35,-46.88,22.22,4.1
193,Yaan,97,NG,1601721204,72,7.38,8.57,29.12,0.49
194,East London,90,ZA,1601721205,100,-33.02,27.91,15.0,6.7
195,Ilhabela,47,BR,1601721037,87,-23.78,-45.36,23.31,5.04
196,Pizarro,95,CO,1601721206,90,4.95,-77.37,24.36,2.92
197,Zharkent,30,KZ,1601721207,24,44.16,80.0,20.47,2.68
198,Airai,86,TL,1601721207,96,-8.93,125.41,16.31,1.06
199,Bafoulabé,100,ML,1601721209,93,13.81,-10.83,24.09,2.13
200,Mungwi,52,ZM,1601721209,14,-10.17,31.37,34.24,3.1
201,Redmond,0,US,1601721175,94,47.67,-122.12,13.89,0.54
202,Hualmay,65,PE,1601721211,88,-11.1,-77.61,15.8,3.42
203,Solginskiy,4,RU,1601721211,71,61.05,41.34,12.77,2.49
204,Lagoa,84,PT,1601721212,82,39.05,-27.98,20.3,7.31
205,Abu Dhabi,0,AE,1601721213,56,24.47,54.37,36.0,4.6
206,Ancud,0,CL,1601721213,100,-41.87,-73.82,2.22,2.6
207,Verkhnevilyuysk,17,RU,1601721214,89,63.45,120.32,-0.04,3.67
208,Half Moon Bay,90,US,1601721215,72,37.46,-122.43,17.78,2.09
209,Geraldton,0,AU,1601721215,55,-28.77,114.6,16.0,8.7
210,Manzhouli,100,CN,1601721216,86,49.6,117.43,4.93,4.88
211,Kathmandu,40,NP,1601720946,69,27.72,85.32,26.0,3.6
212,Bethel,1,US,1601721217,100,41.37,-73.41,6.67,1.34
213,Poum,38,NC,1601721218,75,-20.23,164.02,21.97,6.72
214,Akonolinga,89,CM,1601721218,53,3.77,12.25,29.81,0.97
215,Benito Juarez,90,MX,1601721219,66,19.39,-99.17,12.0,3.1
216,Eureka,90,US,1601721154,100,40.8,-124.16,12.22,1.5
217,Pevek,100,RU,1601721026,90,69.7,170.31,0.15,1.01
218,Victoria Point,1,AU,1601721223,62,-27.58,153.3,20.56,1.79
219,Gorontalo,100,ID,1601721223,82,0.54,123.06,25.69,1.46
220,Bilma,0,NE,1601721224,14,18.69,12.92,39.34,3.39
221,Basoko,93,CD,1601721225,54,1.24,23.62,30.21,1.5
222,Porto Belo,75,BR,1601721225,77,-27.16,-48.55,21.0,5.1
223,Lima,90,PE,1601721173,87,-12.04,-77.03,16.0,2.1
224,São Bento do Sul,94,BR,1601721227,94,-26.25,-49.38,16.11,0.89
225,Carnarvon,0,AU,1601721227,49,-24.87,113.63,20.0,11.3
226,Samsun Province,40,TR,1601721152,69,41.25,36.33,23.0,3.1
227,Hurricane,1,US,1601721228,10,37.18,-113.29,17.0,3.91
228,Mohgaon,8,IN,1601721229,54,21.65,78.72,29.26,4.5
229,Castricum,100,NL,1601720949,89,52.55,4.67,14.44,0.89
230,Hofn,100,IS,1601721230,91,64.25,-15.21,8.36,6.62
231,Port Blair,90,IN,1601721231,94,11.67,92.75,26.0,4.8
232,Kushima,40,JP,1601721231,78,31.46,131.23,24.0,1.5
233,Ottawa,75,CA,1601720886,93,45.41,-75.7,5.0,2.6
234,Leningradskiy,100,RU,1601720949,95,69.38,178.42,0.05,5.02
235,Prainha,0,BR,1601721233,71,-1.8,-53.48,26.64,2.49
236,Duncan,1,US,1601721013,66,34.5,-97.96,13.89,3.6
237,Yagodnoye,0,RU,1601721235,90,62.55,149.67,-0.9,1.03
238,Solnechnyy,100,RU,1601721236,94,50.72,136.63,6.72,1.4
239,Almaznyy,97,RU,1601721236,42,48.04,40.05,19.0,8.0
240,Mount Isa,48,AU,1601721237,15,-20.73,139.5,27.0,2.6
241,Karasjok,75,NO,1601721238,71,69.47,25.51,11.0,12.9
242,Jacksonville,90,US,1601721013,68,30.33,-81.66,20.0,6.2
243,Alzamay,57,RU,1601721239,77,55.56,98.66,2.19,0.65
244,Ndioum,0,SN,1601721240,43,16.51,-14.65,33.0,1.0
245,Bella Union,100,UY,1601721240,83,-30.28,-57.6,10.26,8.48
246,Lucapa,0,AO,1601721242,35,-8.42,20.74,34.64,1.59
247,Kâhta,20,TR,1601721243,25,37.79,38.62,29.0,3.6
248,Itoman,20,JP,1601721243,61,26.12,127.67,27.0,4.6
249,Wanning,91,CN,1601721244,86,18.8,110.4,27.48,3.01
250,Porto-Novo,40,BJ,1601721245,79,6.5,2.6,29.0,5.1
251,Granada,0,ES,1601721245,61,37.25,-3.25,13.33,4.38
252,Whyalla,100,AU,1601721246,38,-33.03,137.58,25.0,2.6
253,Yulara,18,AU,1601721247,17,-25.24,130.99,33.0,7.7
254,Lavrentiya,79,RU,1601721248,86,65.58,-171.0,4.39,5.9
255,San Patricio,3,MX,1601721249,85,19.22,-104.7,23.73,1.9
256,Trabzon Province,75,TR,1601721249,73,40.92,39.83,23.0,2.6
257,Nioro,14,GM,1601721250,71,13.35,-15.75,30.07,2.47
258,Saskylakh,80,RU,1601721251,97,71.92,114.08,-3.37,5.5
259,Pishin,0,PK,1601721027,14,30.58,67.0,26.73,2.37
260,Hasaki,75,JP,1601721252,82,35.73,140.83,20.0,0.5
261,Schwarzenberg,13,DE,1601721252,70,50.55,12.78,16.67,3.58
262,Assiniboia,0,CA,1601721253,83,49.63,-105.98,6.11,2.37
263,Carahue,1,CL,1601721254,45,-38.7,-73.17,8.0,4.1
264,Avera,1,US,1601721254,100,33.19,-82.53,10.0,3.03
265,Nyrob,98,RU,1601721255,65,60.73,56.72,5.83,3.99
266,Carauari,10,BR,1601721255,84,-4.88,-66.9,23.63,0.84
267,Rustenburg,99,ZA,1601721256,58,-25.67,27.24,21.98,3.64
268,Xining,13,CN,1601721257,48,36.62,101.77,9.35,8.31
269,Aklavik,90,CA,1601721257,87,68.22,-135.01,6.0,3.1
270,Biak,97,ID,1601721258,77,-0.91,122.88,25.62,2.36
271,Broome,90,US,1601721084,87,42.25,-75.83,6.67,2.1
272,Menongue,64,AO,1601721259,23,-14.66,17.69,32.67,2.24
273,Thompson,75,CA,1601721260,99,55.74,-97.86,0.0,1.0
274,Nādbai,0,IN,1601721261,11,27.23,77.2,36.4,3.74
275,Newport,100,GB,1601721002,95,51.59,-3.0,13.33,1.34
276,Abhā,20,SA,1601721263,9,18.22,42.51,27.0,6.2
277,Zeya,100,RU,1601721263,81,53.75,127.27,6.48,2.38
278,Hong Kong,2,HK,1601721216,70,22.29,114.16,28.89,4.8
279,İmamoğlu,0,TR,1601721264,30,37.27,35.66,34.0,3.1
280,Yerbogachën,88,RU,1601721265,91,61.28,108.01,0.09,3.63
281,Manavālakurichi,20,IN,1601721266,74,8.13,77.3,31.0,3.6
282,Bahir Dar,50,ET,1601721266,51,11.59,37.39,24.68,3.04
283,Shenjiamen,9,CN,1601721268,89,29.96,122.3,23.72,3.89
284,Amontada,24,BR,1601721268,53,-3.36,-39.83,28.97,4.16
285,Batagay-Alyta,100,RU,1601721269,80,67.8,130.41,-1.45,7.61
286,Bengkulu,98,ID,1601721270,79,-3.8,102.27,26.86,3.23
287,Toledo,0,ES,1601721270,45,39.83,-4.0,16.11,6.24
288,Puerto Escondido,77,MX,1601721271,63,15.85,-97.07,24.03,2.83
289,Clarence Town,0,AU,1601721272,77,-32.58,151.78,19.0,4.1
290,San Cristobal,26,VE,1601721272,79,7.77,-72.22,18.06,1.07
291,Oga,75,IT,1601721273,93,46.46,10.35,11.11,4.6
292,Avanigadda,75,IN,1601721159,70,16.02,80.92,33.0,2.1
293,Oriximiná,17,BR,1601721274,55,-1.77,-55.87,28.71,1.08
294,Adrar,0,MR,1601721275,20,20.5,-10.07,31.39,4.17
295,Huarmey,64,PE,1601721275,88,-10.07,-78.15,16.02,3.4
296,Belaya Gora,2,RU,1601721276,80,68.53,146.42,-2.03,3.95
297,Fortuna,0,US,1601721276,96,40.6,-124.16,12.22,0.45
298,Nauta,100,PE,1601721277,93,-4.51,-73.58,22.36,2.67
299,North Bend,90,US,1601721110,100,43.41,-124.22,13.0,1.5
300,Deer Lake,90,CA,1601721279,100,49.17,-57.43,12.0,1.5
301,Saryagash,0,KZ,1601721280,19,41.45,69.17,23.0,3.1
302,Ostrovnoy,91,RU,1601721280,61,68.05,39.51,6.8,4.75
303,Alta Floresta,59,BR,1601721006,57,-9.88,-56.09,27.29,1.19
304,Kyshtovka,100,RU,1601721282,70,56.55,76.63,12.94,4.77
305,Gimli,1,CA,1601721125,99,50.63,-96.99,-1.67,1.57
306,Padang,88,ID,1601721283,71,-0.95,100.35,27.51,1.91
307,Pangody,97,RU,1601721133,77,65.85,74.49,2.15,9.93
308,General Pico,72,AR,1601721074,72,-35.66,-63.76,4.22,6.78
309,Taungdwingyi,56,MM,1601721284,81,20.02,95.55,28.85,1.16
310,Coyhaique,0,CL,1601721286,85,-45.58,-72.07,-7.0,1.0
311,Khandyga,0,RU,1601721287,92,62.67,135.6,-1.76,0.39
312,Nadym,89,RU,1601721287,75,65.53,72.52,2.65,11.28
313,Helena,1,US,1601721288,61,46.59,-112.04,9.0,0.65
314,Tura,59,IN,1601721288,85,25.52,90.22,26.73,1.48
315,Sidi Ali,66,DZ,1601721290,48,36.1,0.42,18.6,7.05
316,Conakry,90,GN,1601721290,100,9.54,-13.68,24.0,4.1
317,Marfino,98,RU,1601721291,45,55.7,37.38,18.0,5.0
318,Bonavista,100,CA,1601721292,75,48.65,-53.11,17.22,3.13
319,Sørland,0,NO,1601721292,71,67.67,12.69,13.0,1.5
320,Kibuye,40,RW,1601721293,64,-2.06,29.35,24.0,4.1
321,Eyl,90,SO,1601721294,56,7.98,49.82,30.11,5.69
322,Iowa City,90,US,1601721294,75,41.66,-91.53,8.0,1.21
323,Harwich,100,GB,1601721295,97,51.94,1.28,13.33,1.79
324,Talcahuano,2,CL,1601721296,81,-36.72,-73.12,6.0,3.6
325,Erdaojiang,0,CN,1601721297,75,41.78,126.03,10.08,1.81
326,Ruhengeri,40,RW,1601721298,64,-1.5,29.64,24.0,4.1
327,Berdigestyakh,13,RU,1601721186,95,62.1,126.7,-3.27,1.48
328,Yar-Sale,89,RU,1601721151,76,66.83,70.83,2.61,9.82
329,São Filipe,18,CV,1601721300,74,14.9,-24.5,27.4,4.8
330,La Cruz,0,MX,1601721301,95,23.92,-106.9,25.0,1.34
331,Matagami,90,CA,1601721091,100,49.75,-77.63,-1.0,1.64
332,Ratnagiri,83,IN,1601721303,76,16.98,73.3,28.9,3.11
333,Komsomolets,92,KZ,1601721304,58,53.75,62.07,16.16,3.92
334,Touros,20,BR,1601721304,83,-5.2,-35.46,25.0,2.6
335,Buritizeiro,26,BR,1601721305,27,-17.35,-44.96,29.09,1.86
336,Ketchikan,90,US,1601721306,100,55.34,-131.65,14.0,3.1
337,Praia da Vitória,75,PT,1601721307,77,38.73,-27.07,22.22,7.15
338,Severo-Kuril'sk,1,RU,1601721308,76,50.68,156.12,7.58,4.47
339,Manuk Mangkaw,29,PH,1601721308,64,4.8,119.85,29.61,0.55
340,Kloulklubed,75,PW,1601721309,83,7.04,134.26,27.0,1.5
341,Jiazi,10,CN,1601721310,79,22.88,116.07,25.47,3.96
342,Lárdos,20,GR,1601721310,54,36.09,28.02,27.0,3.6
343,Belmonte,20,BR,1601721311,78,-15.86,-38.88,24.0,2.6
344,Leeton,6,AU,1601721311,52,-34.57,146.4,19.44,3.1
345,Dutlwe,0,BW,1601721312,15,-23.98,23.9,33.54,5.14
346,Kidal,27,ML,1601721313,29,18.44,1.41,35.18,3.73
347,Marsá Maţrūḩ,0,EG,1601721314,37,31.35,27.25,30.0,3.1
348,Galveston,1,US,1601721019,64,29.37,-94.97,22.22,3.6
349,Tiksi,0,RU,1601721315,95,71.69,128.87,-3.75,9.52
350,General Roca,75,AR,1601721315,69,-39.03,-67.58,4.0,4.6
351,Tuktoyaktuk,100,CA,1601721316,87,69.45,-133.04,5.48,7.91
352,Chushan,100,CN,1601721317,77,33.3,113.65,15.48,2.8
353,Pavlogradka,0,RU,1601721318,39,54.2,73.56,15.85,5.8
354,Cidreira,100,BR,1601721319,79,-30.18,-50.21,15.35,7.51
355,Anadyr,20,RU,1601721319,80,64.75,177.48,1.0,3.0
356,Baker City,1,US,1601721320,70,44.77,-117.83,7.0,1.29
357,Tessalit,13,ML,1601721320,20,20.2,1.01,36.84,6.5
358,Ekimchan,100,RU,1601721321,73,53.07,132.97,5.86,2.33
359,Arraial do Cabo,1,BR,1601721322,88,-22.97,-42.03,24.0,3.6
360,Vila do Maio,20,CV,1601721324,74,15.13,-23.22,27.0,11.8
361,Lhokseumawe,97,ID,1601721324,79,5.18,97.15,26.78,1.93
362,Tongliao,32,CN,1601721325,34,43.61,122.27,15.46,9.81
363,Payson,1,US,1601721255,57,40.04,-111.73,12.22,2.1
364,Caravelas,84,BR,1601721326,66,-17.71,-39.25,26.33,3.45
365,Tsaitien,90,CN,1601721327,93,30.58,114.03,15.0,2.0
366,Berlevåg,62,NO,1601721328,80,70.86,29.09,9.67,8.91
367,Pemangkat,87,ID,1601721328,75,1.17,108.97,27.36,4.3
368,Baoying,100,CN,1601721330,91,33.23,119.31,18.42,3.55
369,Kawalu,73,ID,1601721331,90,-7.38,108.21,23.08,1.61
370,Mtsamboro,19,YT,1601721331,66,-12.7,45.07,30.0,3.1
371,Koslan,54,RU,1601721332,58,63.46,48.9,7.37,2.13
372,Saint-François,69,FR,1601721334,58,46.42,3.91,15.0,9.3
373,Margate,94,GB,1601721335,99,51.38,1.39,13.89,1.34
374,Mount Gambier,90,AU,1601721066,87,-37.83,140.77,14.0,4.1
375,Husavik,75,IS,1601721336,84,66.04,-17.34,0.0,2.1
376,Santa Marta,100,CO,1601721103,85,11.24,-74.2,27.78,4.14
377,High Rock,98,BS,1601721337,77,26.62,-78.28,27.85,6.92
378,Kahului,75,US,1601721337,74,20.89,-156.47,27.0,1.5
379,Mariehamn,90,AX,1601721338,76,60.1,19.93,14.0,3.1
380,Ucluelet,9,CA,1601721339,93,48.93,-125.55,13.89,0.71
381,Virginia Beach,20,US,1601721193,62,36.85,-75.98,15.56,3.1
382,Lamar,1,US,1601721340,81,33.67,-95.58,11.11,3.6
383,Port Augusta,79,AU,1601721341,38,-32.5,137.77,26.11,2.6
384,Jadu,39,LY,1601721341,8,31.95,12.03,37.66,10.7
385,Agirish,92,RU,1601721342,74,61.92,63.02,3.67,5.31
386,Constitución,0,CL,1601721343,71,-35.33,-72.42,7.14,3.11
387,Port Macquarie,0,AU,1601721071,85,-31.43,152.92,17.22,5.76
388,Coquimbo,9,CL,1601721345,87,-29.95,-71.34,8.0,3.1
389,Abu Samrah,0,SY,1601721345,22,35.3,37.18,30.82,3.2
390,Cherskiy,98,RU,1601721188,93,68.75,161.3,-0.6,3.05
391,Willowmore,100,ZA,1601721346,77,-33.29,23.49,12.11,3.49
392,Kuah,40,MY,1601721347,88,6.33,99.84,26.0,5.7
393,Punta de Piedra,37,VE,1601721348,87,7.62,-71.49,20.89,0.65
394,Tautira,20,PF,1601721349,83,-17.73,-149.15,24.0,2.1
395,Den Helder,90,NL,1601721331,93,52.96,4.76,15.0,4.1
396,Khovd,0,MN,1601721350,60,48.01,91.64,4.98,1.43
397,Mabaruma,80,GY,1601721351,93,8.2,-59.78,24.24,0.88
398,Murmashi,40,RU,1601721351,76,68.82,32.81,9.0,2.0
399,Douentza,64,ML,1601721352,42,15.0,-2.95,33.0,5.61
400,Posevnaya,0,RU,1601721353,71,54.3,83.33,9.02,3.38
401,Great Yarmouth,100,GB,1601721215,99,52.61,1.73,14.44,4.02
402,Port Hedland,39,AU,1601721355,19,-20.32,118.57,33.0,9.3
403,Olafsvik,98,IS,1601721355,72,64.89,-23.71,4.66,4.07
404,Churapcha,14,RU,1601721357,87,62.0,132.43,-1.52,1.08
405,Dauriya,100,RU,1601721358,81,49.93,116.87,4.84,4.33
406,Skibbereen,20,IE,1601721359,61,51.55,-9.27,10.0,7.7
407,Laas,90,IT,1601721359,100,46.62,10.7,14.44,5.7
408,Porto Velho,20,BR,1601721160,88,-8.76,-63.9,24.0,0.5
409,Kiunga,100,PG,1601721361,97,-6.12,141.29,23.64,1.81
410,Nsanje,0,MW,1601721361,18,-16.92,35.26,41.03,2.54
411,Rio Grande,100,BR,1601721363,94,-32.03,-52.1,11.67,2.68
412,Itaguaí,55,BR,1601721363,58,-22.85,-43.78,30.0,3.6
413,Mitsamiouli,40,KM,1601721364,74,-11.38,43.28,29.0,3.6
414,Dwārka,3,IN,1601721365,67,22.24,68.97,29.36,5.62
415,Río Gallegos,75,AR,1601721156,55,-51.62,-69.22,2.0,4.1
416,Kununurra,91,AU,1601721367,48,-15.77,128.73,31.0,3.6
417,Bam,0,IR,1601721368,12,29.11,58.36,31.81,7.1
418,Port Lincoln,100,AU,1601721369,93,-34.73,135.87,14.65,7.44
419,Jizan,20,SA,1601721370,56,17.33,42.67,37.0,6.7
420,Chimoio,12,MZ,1601721371,47,-19.12,33.48,27.0,3.1
421,Shache,37,CN,1601721372,20,38.42,77.24,21.63,3.43
422,Stary Krym,30,UA,1601721372,57,45.03,35.1,21.12,2.84
423,Kutum,1,SD,1601721373,26,14.2,24.67,31.97,5.14
424,Fredericksburg,1,US,1601721374,100,38.3,-77.46,8.0,1.9
425,Natal,20,BR,1601721155,83,-5.79,-35.21,25.0,2.6
426,Philadelphia,40,US,1601721317,76,39.95,-75.16,11.11,1.5
427,Burnie,100,AU,1601721376,79,-41.07,145.92,14.44,1.34
428,Zambezi,0,ZM,1601721377,12,-13.54,23.1,37.96,3.15
429,Mapiripán,97,CO,1601721378,94,2.89,-72.13,22.02,1.11
430,Pakokku,45,MM,1601721379,66,21.33,95.1,31.59,2.88
431,Makkah al Mukarramah,0,SA,1601721379,14,21.43,39.83,40.16,4.57
432,Malatya Province,0,TR,1601721380,21,38.5,38.0,27.0,2.1
433,Police,40,PL,1601721380,72,53.55,14.57,19.44,4.6
434,Nemuro,75,JP,1601721381,100,43.32,145.57,15.0,2.6
435,Port Montt,0,CL,1601721217,92,-41.47,-72.94,-1.0,1.5
436,Eston,5,CA,1601721382,81,51.15,-108.75,5.0,3.1
437,Qasigiannguit,75,GL,1601721383,86,68.82,-51.19,-1.0,5.1
438,Samarkand,0,UZ,1601721384,21,39.65,66.96,22.0,3.1
439,Yangi Marg`ilon,0,UZ,1601721384,18,40.43,71.72,22.0,3.1
440,Sitka,90,US,1601721385,93,57.05,-135.33,12.0,2.6
441,Nouadhibou,0,MR,1601721386,69,20.93,-17.03,23.0,11.8
442,Sijunjung,88,ID,1601721386,81,-0.69,100.95,25.07,0.24
443,Maxixe,40,MZ,1601721387,61,-23.86,35.35,28.0,6.2
444,La Santisima Trinidad,40,BO,1601721388,88,-14.83,-64.9,24.0,1.22
445,Oistins,20,BB,1601721389,88,13.07,-59.53,24.0,2.1
446,Blind River,90,CA,1601721389,93,46.18,-82.96,3.0,1.5
447,Kruisfontein,100,ZA,1601721390,83,-34.0,24.73,15.56,3.13
448,Tombouctou,0,ML,1601721391,26,20.0,-3.0,36.65,5.64
449,George Town,20,MY,1601721391,70,5.41,100.34,29.0,3.6
450,Lompoc,1,US,1601721392,76,34.64,-120.46,20.0,2.15
451,Mana,34,GF,1601721392,87,5.66,-53.78,26.47,3.9
452,São Francisco,11,BR,1601721393,34,-15.95,-44.86,27.45,2.54
453,Kupang,20,ID,1601721394,65,-10.17,123.58,28.0,8.2
454,Illapel,29,CL,1601721394,76,-31.63,-71.17,8.31,0.88
455,Paita,95,PE,1601721395,84,-5.09,-81.11,17.23,4.46
456,Hay River,75,CA,1601721396,76,60.82,-115.8,9.0,5.7
457,Misratah,16,LY,1601721396,17,32.38,15.09,37.35,8.26
458,Nome,90,US,1601721397,81,64.5,-165.41,8.89,4.1
459,Valparaíso,0,CL,1601721398,100,-33.04,-71.63,1.0,1.0
460,Świnoujście,46,PL,1601721398,77,53.91,14.25,18.0,7.2
461,‘Ewa Beach,90,US,1601721399,78,21.32,-158.01,26.0,1.5
462,Keti Bandar,9,PK,1601721400,69,24.14,67.45,30.35,6.81
463,Merauke,100,ID,1601721400,79,-8.47,140.33,26.48,6.63
464,Esim,100,GH,1601721401,77,4.87,-2.24,26.39,2.82
465,Bermeo,90,ES,1601721343,82,43.42,-2.72,13.89,6.7
466,Mastic Beach,1,US,1601721353,87,40.77,-72.85,9.0,2.34
467,Enshi,100,CN,1601721403,86,30.3,109.48,17.69,1.3
468,Kashgar,74,CN,1601721403,25,39.45,75.98,19.0,2.0
469,Deloraine,90,AU,1601721404,77,-41.53,146.67,16.11,3.1
470,Vanavara,100,RU,1601721404,86,60.34,102.28,1.63,3.66
471,Sola,90,VU,1601721405,78,-13.88,167.55,27.0,2.6
472,Scarborough,100,GB,1601721406,95,54.28,-0.4,13.33,2.24
473,Kristinehamn,48,SE,1601721406,87,59.31,14.11,14.0,5.1
474,Saint Anthony,75,US,1601721407,69,45.02,-93.22,5.0,1.5
475,Kismayo,0,SO,1601721407,65,-0.36,42.55,28.3,7.33
476,São Gabriel da Cachoeira,87,BR,1601721408,96,-0.13,-67.09,23.22,0.61
477,Beyneu,0,KZ,1601721409,18,45.32,55.2,22.61,2.9
478,Staraya Poltavka,17,RU,1601721309,26,50.48,46.48,21.33,4.89
479,Kristinestad,18,FI,1601721410,63,62.27,21.38,15.22,5.15
480,San Javier,0,ES,1601721411,32,37.81,-0.84,20.0,4.6
481,Fare,22,PF,1601721412,76,-16.7,-151.02,26.39,8.6
482,Tahoua,19,NE,1601721412,58,14.89,5.27,31.0,4.1
483,Darhan,2,MN,1601721413,76,49.49,105.92,0.51,0.6
484,Kabo,24,CF,1601721414,55,7.7,18.63,33.77,0.63
485,Esil,76,KZ,1601721414,43,51.96,66.4,16.59,4.65
486,Yinchuan,1,CN,1601721415,36,38.47,106.27,11.5,9.47
487,Klaksvík,99,FO,1601721416,87,62.23,-6.59,10.0,7.7
488,Balaipungut,20,ID,1601721154,59,1.05,101.28,32.0,2.6
489,Umm Kaddadah,0,SD,1601721419,28,13.6,26.69,34.99,1.66
490,Orange,1,US,1601721420,56,33.7,-117.77,22.0,0.67
491,Minas,75,UY,1601721146,67,-34.38,-55.24,8.0,5.7
492,Wamba,94,NG,1601721421,67,8.93,8.6,27.05,1.52
493,Lebowakgomo,75,ZA,1601721422,63,-24.2,29.5,19.0,5.7
494,Amapá,60,BR,1601721422,91,1.0,-52.0,24.42,1.34
495,Vagay,89,RU,1601721423,70,57.94,69.02,10.02,5.83
496,Burhar,2,IN,1601721424,64,23.22,81.53,28.49,3.55
497,Ayan,99,RU,1601721127,74,56.45,138.17,8.45,3.1
498,Hohhot,0,CN,1601721425,35,40.81,111.65,6.0,9.0
499,Nuuk,75,GL,1601721215,74,64.18,-51.72,1.0,1.5
500,Karratha,0,AU,1601721426,28,-20.74,116.85,26.7,7.34
501,Kholtoson,0,RU,1601721427,77,50.3,103.31,-2.21,1.75
502,Codrington,86,AU,1601721427,78,-38.27,141.97,13.68,5.04
503,Arrondissement de Tulle,100,FR,1601721428,80,45.33,1.83,10.56,1.34
504,Haradok,98,BY,1601721429,59,55.46,29.98,16.0,6.0
505,Muli,100,MV,1601721429,75,2.92,73.57,27.57,5.91
506,Rawson,0,AR,1601721430,71,-43.3,-65.1,3.73,6.77
507,‘Āhuimanu,90,US,1601721431,78,21.44,-157.84,27.0,2.1
508,Careiro da Várzea,75,BR,1601721432,88,-3.2,-59.81,26.0,2.1
509,Turan,40,VN,1601721432,79,16.07,108.22,29.0,0.5
510,Hailar,100,CN,1601721185,95,49.2,119.7,3.63,3.56
511,Jasper,40,US,1601721433,66,37.2,-94.35,12.22,4.6
512,Deputatsky,100,RU,1601721434,94,69.3,139.9,-4.53,8.98
513,Udomlya,86,RU,1601721435,57,57.88,34.99,16.97,3.73
514,Broken Hill,60,AU,1601721436,24,-31.95,141.43,26.0,4.1
515,The Valley,75,AI,1601721437,88,18.22,-63.06,26.11,1.5
516,Bilibino,85,RU,1601721437,88,68.05,166.44,-4.51,0.65
517,Zyryanka,28,RU,1601721438,96,65.75,150.85,-1.82,0.56
518,Linxia Chengguanzhen,99,CN,1601721439,51,35.6,103.21,12.19,1.62
519,Mwanza,20,TZ,1601721439,42,-2.52,32.9,29.0,2.6
520,La Ronge,90,CA,1601721440,100,55.1,-105.28,3.0,1.5
521,Numan,100,NG,1601721441,57,9.47,12.03,32.24,0.91
522,Nago,40,JP,1601721441,73,26.59,127.98,26.67,1.5
523,Ipixuna,20,BR,1601721442,94,-1.76,-48.8,25.0,0.5
524,Severomorsk,40,RU,1601721443,76,69.07,33.42,9.0,2.0
525,Liepāja,90,LV,1601721443,82,56.54,21.04,14.0,7.2
526,Juegang,100,CN,1601721444,91,32.32,121.19,19.15,3.6
527,Vieques,40,PR,1601721444,94,18.43,-65.83,25.0,3.57
528,Laguna,1,US,1601721445,77,38.42,-121.42,18.89,0.79
529,Coahuayana Viejo,0,MX,1601721446,49,18.73,-103.68,22.28,2.23
530,Katobu,94,ID,1601721447,77,-4.94,122.53,25.01,2.87
531,Srandakan,32,ID,1601721447,58,-7.94,110.25,30.0,4.65
532,Bodø,40,NO,1601721448,58,67.28,14.4,14.0,11.3
533,Carutapera,77,BR,1601721449,71,-1.2,-46.02,28.31,4.42
534,Shingū,75,JP,1601721449,78,33.73,135.98,23.0,1.5
535,Timbiras,87,BR,1601721450,73,-4.26,-43.94,26.04,2.09
536,Mortka,90,RU,1601721451,73,59.33,66.02,5.79,5.99
537,Dimbokro,61,CI,1601721452,70,6.65,-4.7,28.41,1.6
538,Makakilo City,90,US,1601721453,78,21.35,-158.09,26.0,1.5
539,Usta Muhammad,0,PK,1601721454,8,28.18,68.04,40.18,1.9
540,Honiara,20,SB,1601721454,94,-9.43,159.95,24.0,2.1
541,Murgab,0,TM,1601721455,15,37.5,61.97,27.0,3.1
542,Synya,91,RU,1601721456,72,65.37,58.04,3.95,3.77
543,Mugur-Aksy,26,RU,1601721457,81,50.35,90.5,0.3,2.68
544,Sun City West,1,US,1601721458,14,33.66,-112.34,23.89,2.1
545,Hvolsvollur,40,IS,1601721458,86,63.75,-20.22,4.44,6.2
546,Wangqing,0,CN,1601721459,64,43.32,129.76,8.22,0.8
547,Kholodnyy,8,RU,1601721460,86,62.72,147.95,-1.58,1.47
548,Marystown,100,CA,1601721192,100,47.17,-55.15,18.89,2.24
549,Manta,100,EC,1601721461,84,-0.95,-80.73,20.78,3.12
550,Golyshmanovo,100,RU,1601721462,84,56.4,68.37,10.27,4.23
551,Bani Walid,16,LY,1601721463,7,31.76,13.99,40.18,9.42
552,Ahipara,4,NZ,1601721464,82,-35.17,173.17,11.06,1.24
553,Angoram,82,PG,1601721465,94,-4.06,144.07,24.44,1.09
554,Beberibe,75,BR,1601721465,74,-4.18,-38.13,26.0,6.2
555,Mīzan Teferī,79,ET,1601721466,72,6.98,35.58,22.97,1.62
556,Praia,20,CV,1601721467,74,14.92,-23.51,27.0,11.8
557,Pemba,20,MZ,1601721467,62,-12.97,40.52,30.0,5.1
558,Kaita,75,JP,1601721468,88,34.37,132.55,23.0,1.5
559,Kozlovka,0,RU,1601721469,31,55.84,48.25,18.0,2.0
560,Ko Samui,20,TH,1601721469,79,9.54,99.94,29.0,1.0
561,Rieti,75,IT,1601721470,88,42.41,12.86,18.0,6.2
562,Maţāy,0,EG,1601721471,18,28.42,30.78,35.63,6.09
563,Dekar,0,BW,1601721471,9,-21.53,21.93,35.45,2.07
564,Miguel Hidalgo,90,MX,1601721472,66,19.42,-99.2,12.0,3.1
565,Kavalerovo,0,RU,1601721474,78,44.27,135.06,7.59,1.66
566,Grindavik,75,IS,1601721475,80,63.84,-22.43,5.0,7.2
567,Verkhnyaya Toyma,8,RU,1601721475,58,62.23,45.0,9.2,1.66
568,Miles City,90,US,1601721476,52,46.41,-105.84,8.0,2.1
569,Tankhoy,0,RU,1601721477,79,51.55,105.13,0.72,2.81
570,Sambava,50,MG,1601721478,64,-14.27,50.17,26.18,5.25
571,Isangel,20,VU,1601721479,94,-19.55,169.27,21.0,2.6
572,Kerema,77,PG,1601721480,89,-7.96,145.78,26.1,3.32
573,Quatre Cocos,20,MU,1601721480,57,-20.21,57.76,27.0,6.7
574,Xi'an,90,CN,1601721481,93,34.26,108.93,15.56,2.0
575,Hirara,20,JP,1601721482,74,24.8,125.28,27.0,3.1
576,Alice Springs,1,AU,1601721482,15,-23.7,133.88,33.0,4.1
577,Charters Towers,0,AU,1601721483,67,-20.1,146.27,19.72,6.77
578,Kaeo,10,NZ,1601721484,88,-35.1,173.78,10.56,0.9
579,Ponta Delgada,40,PT,1601721485,73,37.73,-25.67,21.0,6.7
580,Lamphun,75,TH,1601721486,70,18.25,98.92,30.0,2.1
581,Havre-St-Pierre,90,CA,1601721486,93,50.23,-63.6,9.0,2.6
582,Matara,89,LK,1601721487,73,5.95,80.54,28.39,6.62
583,Araranguá,100,BR,1601721488,89,-28.93,-49.49,15.41,3.38
584,Umm Hājar,100,TD,1601721488,40,13.3,19.7,34.09,2.47
585,Ritchie,0,ZA,1601721489,16,-29.04,24.6,23.0,1.5
586,Richards Bay,100,ZA,1601721490,91,-28.78,32.04,18.6,3.58
587,Maltahöhe,0,NA,1601721491,11,-24.83,16.98,26.29,5.19
588,Santiago de Cuba,20,CU,1601721491,83,20.02,-75.82,25.0,1.5
589,Minnedosa,40,CA,1601721493,91,50.25,-99.84,0.0,2.6
590,Nicoya,100,CR,1601721493,96,10.15,-85.45,22.65,0.76
591,Paraná,100,AR,1601721494,61,-31.73,-60.52,10.56,2.24
592,Rach Gia,40,VN,1601721495,89,10.02,105.08,29.0,3.1
593,Jumla,9,NP,1601721497,48,29.27,82.18,19.51,2.54
594,Kwang Binh,100,VN,1601721499,82,17.48,106.6,27.6,2.07
595,Dalnerechensk,57,RU,1601721500,82,45.93,133.72,9.61,2.88
596,Heihe,75,CN,1601721501,100,50.24,127.49,9.0,3.0
597,Hibbing,90,US,1601721489,95,47.43,-92.94,0.0,1.18
598,Samarinda,92,ID,1601721243,95,-0.5,117.15,25.19,1.41
599,Guerrero Negro,0,MX,1601721502,68,27.98,-114.06,22.38,2.25
600,Yuyao,40,CN,1601721447,78,30.05,121.15,26.67,4.0
601,Saint-Pierre,75,RE,1601721504,69,-21.34,55.48,26.0,4.6
602,Tabou,99,CI,1601721505,83,4.42,-7.35,26.51,4.82
603,Ladário,1,BR,1601721274,69,-19.0,-57.6,28.0,1.01
604,Solnechnogorsk,70,RU,1601721507,42,56.18,36.98,18.0,4.0
605,Gari,80,RU,1601721507,63,59.43,62.35,6.11,5.9
606,Boma,99,GH,1601721508,70,7.08,-2.17,26.69,1.33
607,São Borja,8,BR,1601721511,84,-28.66,-56.0,14.96,8.3
608,Santa Fe,100,AR,1601721411,59,-31.63,-60.7,10.56,2.24
609,Portland,90,US,1601721233,93,45.52,-122.68,15.0,2.1
610,Ignatovka,13,RU,1601721512,45,53.95,47.65,18.44,2.26
611,Mahibadhoo,100,MV,1601721514,73,3.78,72.97,28.1,4.79
612,Kyaikto,93,MM,1601721514,85,17.3,97.02,27.51,3.67
613,Bowen,40,AU,1601721515,73,-20.02,148.23,22.0,7.7
614,Santo André,90,BR,1601721516,88,-23.66,-46.54,21.67,4.1
615,Mauá,90,BR,1601721516,88,-23.67,-46.46,21.67,4.1
616,Alyangula,40,AU,1601721517,65,-13.85,136.42,26.0,2.6
617,Tilichiki,0,RU,1601721517,90,60.47,166.1,-0.79,4.26
618,Vuktyl,79,RU,1601721518,68,63.86,57.31,4.53,5.84
619,Lively,90,CA,1601721519,100,46.43,-81.15,2.22,1.79
620,Sakakah,0,SA,1601721520,14,29.97,40.21,35.0,2.6
621,Voskresenskoye,2,RU,1601721521,48,56.84,45.43,17.84,1.74
622,Malindi,40,KE,1601721522,66,-3.22,40.12,30.0,7.2
623,Mayumba,98,GA,1601721523,80,-3.43,10.66,26.53,3.54
624,Chester,1,US,1601721389,81,40.13,-75.87,8.33,3.6
625,Taphan Hin,100,TH,1601721524,72,16.22,100.42,29.44,3.27
626,Severo-Yeniseyskiy,98,RU,1601721524,95,60.37,93.04,3.2,3.97
627,High Level,90,CA,1601721525,87,58.52,-117.14,7.0,2.6
628,Liverpool,75,GB,1601721234,93,53.41,-2.98,12.22,5.7
629,Yacuiba,49,BO,1601721526,69,-22.04,-63.68,18.08,4.17
630,Keetmanshoop,0,NA,1601721527,14,-26.58,18.13,22.0,3.1
631,Dzhebariki-Khaya,0,RU,1601721528,91,62.22,135.8,-1.56,1.43
632,Playas,100,EC,1601721528,84,-2.63,-80.38,20.46,2.75
633,San Rafael,100,AR,1601721529,86,-34.62,-68.33,5.03,5.75
634,Pinillos,100,CO,1601721530,99,8.92,-74.47,23.15,0.86
635,Beipiao,16,CN,1601721531,40,41.79,120.78,14.22,4.87
636,Bandarbeyla,77,SO,1601721532,72,9.49,50.81,27.85,8.3
637,Hilton Head,1,US,1601721532,77,32.22,-80.75,17.22,5.1
638,Port Hardy,90,CA,1601721533,100,50.7,-127.42,11.0,2.1
639,Ranong,75,TH,1601721534,94,9.97,98.63,26.0,5.62
640,Mil'kovo,0,RU,1601721535,75,54.72,158.62,3.8,0.58
641,Sept-Îles,20,CA,1601721535,100,50.2,-66.38,6.11,2.1
642,St. George's,75,GD,1601721450,83,12.06,-61.75,26.0,7.7
643,Ambilobe,10,MG,1601721537,29,-13.2,49.05,34.95,3.4
644,Vaitape,16,PF,1601721537,77,-16.52,-151.75,26.12,8.8
645,Mayo,1,US,1601721538,81,38.89,-76.51,12.0,2.1
646,Vao,40,NC,1601721539,73,-22.67,167.48,19.97,10.73
647,Tārānagar,0,IN,1601721539,9,28.67,75.04,36.78,3.21
648,Impfondo,68,CG,1601721540,53,1.64,18.07,31.46,0.71
649,Boden,90,SE,1601721540,93,65.83,21.69,9.0,3.6
650,Kipushi,2,CD,1601721541,15,-11.77,27.23,34.34,3.41
651,Tual,98,ID,1601721542,79,-5.67,132.75,27.5,5.67
652,Pullman,1,US,1601721542,66,46.73,-117.18,10.56,1.54
653,Vauvert,70,FR,1601721545,93,43.7,4.28,17.0,5.7
654,Cockburn Town,92,TC,1601721545,77,21.46,-71.14,28.14,9.34
655,Lata,4,PT,1601721546,76,40.16,-8.33,13.89,0.45
656,Salekhard,99,RU,1601721547,68,66.53,66.6,3.98,4.83
657,Namatanai,82,PG,1601721548,81,-3.67,152.43,26.88,3.34
658,Butembo,47,CD,1601721549,62,0.15,29.28,23.16,1.35
659,Roebourne,1,AU,1601721549,30,-20.78,117.13,26.89,5.91
660,El Dorado,1,US,1601721551,100,33.21,-92.67,8.0,1.7
661,Dawson,1,US,1601721303,76,31.77,-84.45,12.0,1.5
662,Tigil',4,RU,1601721552,83,57.8,158.67,2.08,0.94
663,Pacific Grove,90,US,1601721553,100,36.62,-121.92,13.0,2.6
664,Petropavlovsk-Kamchatskiy,0,RU,1601721554,86,53.05,158.65,4.0,1.0
665,Griffith,90,US,1601721420,75,41.53,-87.42,7.22,2.68
666,Bosaso,20,SO,1601721556,70,11.28,49.18,31.0,3.1
667,Svetlaya,0,RU,1601721556,67,46.54,138.33,12.13,3.43
668,Lorengau,62,PG,1601721557,81,-2.02,147.27,27.74,5.27
669,Manaus,75,BR,1601721558,88,-3.1,-60.02,26.0,2.1
670,Ocala,1,US,1601721558,77,29.19,-82.14,18.0,2.6
671,Amahai,100,ID,1601721559,88,-3.33,128.92,25.17,1.46
672,Damietta,40,EG,1601721560,61,31.42,31.81,28.0,5.1
673,Pāsighāt,28,IN,1601721560,77,28.07,95.33,28.09,0.54
674,Kualakapuas,94,ID,1601721561,48,-3.01,114.39,31.0,2.6
675,Boralday,40,KZ,1601721562,22,43.36,76.86,19.0,2.0
676,Ouadda,72,CF,1601721562,53,8.08,22.4,31.87,1.1
677,Trojes,97,AL,1601721564,38,41.76,19.96,31.0,1.0
678,Mehamn,32,NO,1601721564,78,71.04,27.85,9.63,8.85
679,Kostomuksha,100,RU,1601721565,89,64.57,30.58,8.18,3.8
680,Pangai,100,TO,1601721566,83,-19.8,-174.35,24.9,10.4
681,Ca Mau,100,VN,1601721566,86,9.18,105.15,26.46,2.83
682,Udachny,90,RU,1601721568,92,66.42,112.4,-1.0,4.0
683,Fos-sur-Mer,83,FR,1601721568,72,43.44,4.94,17.0,5.1
684,Languyan,77,PH,1601721569,75,5.26,120.08,27.94,0.74
685,Ormara,0,PK,1601721571,40,25.21,64.64,31.88,6.74
686,Pozo Colorado,93,PY,1601721571,72,-23.49,-58.8,23.52,4.88
687,Élancourt,75,FR,1601721573,76,48.78,1.96,12.78,4.6
688,Te Anau,83,NZ,1601721573,89,-45.42,167.72,10.4,4.48
689,Departamento de Maldonado,75,UY,1601721574,66,-34.67,-54.92,8.0,5.7
690,Nador,20,MA,1601721574,49,35.17,-2.93,20.0,12.3
691,Kavaratti,46,IN,1601721575,74,10.57,72.64,27.64,5.91
692,Beidao,99,CN,1601721576,68,34.57,105.89,13.67,0.68
693,Kathu,75,TH,1601721576,78,7.92,98.33,27.22,6.2
694,Las Vegas,1,US,1601721002,12,36.17,-115.14,23.0,1.75
695,Dalby,0,AU,1601721578,59,-27.18,151.27,19.0,5.7
696,Tazovsky,97,RU,1601721578,82,67.47,78.7,1.91,9.59
697,Vite,69,IN,1601721579,56,17.28,74.55,29.06,1.6
698,Goúmero,20,GR,1601721580,48,37.77,21.62,29.0,4.1
699,Taraz,75,KZ,1601721580,20,42.9,71.37,20.0,2.0
700,Biloela,0,AU,1601721581,72,-24.42,150.5,18.43,3.98
